[
  {
    "id": 1,
    "latitude": 6.5244,
    "longitude": 3.3792,
    "price": "₦165M",
    "rent": "yearly",
    "title": "3 Bedroom Flat",
    "location": "Yaba, Lagos, Nigeria",
    "type": "Sale",
    "image": "../assets/images/mapimg.png",
    "pinpoint": "../assets/images/pinpoint.png"
  },
  {
    "id": 2,
    "latitude": 6.4551,
    "longitude": 3.3942,
    "price": "₦165M",
    "rent": "yearly",
    "title": "2 Bedroom Apartment",
    "location": "Ikeja, Lagos, Nigeria",
    "type": "Rentals",
    "image": "../assets/images/mapimg.png",
    "pinpoint": "../assets/images/pinpoint.png"
  },
  {
    "id": 3,
    "latitude": 6.5761,
    "longitude": 3.3679,
    "price": "₦165M",
    "rent": "yearly",
    "title": "Luxury Penthouse",
    "location": "Victoria Island, Lagos, Nigeria",
    "type": "Sale",
    "image": "../assets/images/mapimg.png",
    "pinpoint": "../assets/images/pinpoint.png"
  },
  {
    "id": 4,
    "latitude": 6.5247,
    "longitude": 3.3795,
    "price": "₦165M",
    "rent": "yearly",
    "title": "1 Bedroom Studio",
    "location": "Surulere, Lagos, Nigeria",
    "type": "Rentals",
    "image": "../assets/images/mapimg.png",
    "pinpoint": "../assets/images/pinpoint.png"
  },
  {
    "id": 5,
    "latitude": 6.4422,
    "longitude": 3.4179,
    "price": "₦165M",
    "rent": "yearly",
    "title": "4 Bedroom Duplex",
    "location": "Lekki, Lagos, Nigeria",
    "type": "Sale",
    "image": "../assets/images/mapimg.png",
    "pinpoint": "../assets/images/pinpoint.png"
  },
  {
    "id": 6,
    "latitude": 6.4801,
    "longitude": 3.3733,
    "price": "₦165M",
    "rent": "yearly",
    "title": "Studio Apartment",
    "location": "Victoria Island, Lagos, Nigeria",
    "type": "Rentals",
    "image": "../assets/images/mapimg.png",
    "pinpoint": "../assets/images/pinpoint.png"
  },
  {
    "id": 7,
    "latitude": 6.5054,
    "longitude": 3.3574,
    "price": "₦165M",
    "rent": "yearly",
    "title": "3 Bedroom Bungalow",
    "location": "Ajah, Lagos, Nigeria",
    "type": "Sale",
    "image": "../assets/images/mapimg.png",
    "pinpoint": "../assets/images/pinpoint.png"
  },
  {
    "id": 8,
    "latitude": 6.4419,
    "longitude": 3.4283,
    "price": "₦165M",
    "rent": "yearly",
    "title": "Cozy Apartment",
    "location": "Lekki, Lagos, Nigeria",
    "type": "Rentals",
    "image": "../assets/images/mapimg.png",
    "pinpoint": "../assets/images/pinpoint.png"
  },
  {
    "id": 9,
    "latitude": 6.5761,
    "longitude": 3.3915,
    "price": "₦165M",
    "rent": "yearly",
    "title": "5 Bedroom Mansion",
    "location": "Victoria Island, Lagos, Nigeria",
    "type": "Sale",
    "image": "../assets/images/mapimg.png",
    "pinpoint": "../assets/images/pinpoint.png"
  }
]
