[
  {
    "id": 1,
    "latitude": 9.05785,
    "longitude": 7.49508,
      "price": "₦1,500,000",
        "rent": "yearly",
    "title": "3 Bedroom Flat",
    "location": "Uyo Aka road, Akwa Ibom, Nigeria",
    "type": "Sale",
    "image": "../assets/images/mapimg.png",
    "pinpoint":"../assets/images/pinpoint.png"
  },
  {
    "id": 2,
    "latitude": 6.5244,
    "longitude": 3.3792,
      "price": "₦1,500,000",
        "rent": "yearly",
    "title": "2 Bedroom Apartment",
    "location": "Uyo Aka road, Akwa Ibom, Nigeria",
    "type": "Rentals",
    "image": "../assets/images/mapimg.png",
    "pinpoint": "../assets/images/pinpoint.png"
  },
  {
    "id": 3,
    "latitude": 10.3157,
    "longitude": 9.734,
      "price": "₦1,500,000",
        "rent": "yearly",
    "title": "Luxury Penthouse",
    "location": "Uyo Aka road, Akwa Ibom, Nigeria",
    "type": "Sale",
    "image": "../assets/images/mapimg.png",
    "pinpoint": "../assets/images/pinpoint.png"
  },
  {
    "id": 4,
    "latitude": 7.1907,
    "longitude": 5.6669,
      "price": "₦1,500,000",
    "rent": "yearly",    "title": "1 Bedroom Studio",
    "location": "Uyo Aka road, Akwa Ibom, Nigeria",
    "type": "Rentals",
    "image": "../assets/images/mapimg.png",
    "pinpoint": "../assets/images/pinpoint.png"
  },
  {
    "id": 5,
    "latitude": 9.9312,
    "longitude": 8.8915,
      "price": "₦1,500,000",
        "rent": "yearly",
    "title": "4 Bedroom Duplex",
    "location": "Uyo Aka road, Akwa Ibom, Nigeria",
    "type": "Sale",
    "image": "../assets/images/mapimg.png",
    "pinpoint": "../assets/images/pinpoint.png"
  },
  {
    "id": 6,
    "latitude": 5.4224,
    "longitude": 7.3316,
      "price": "₦1,500,000",
        "rent": "yearly",
    "title": "Studio Apartment",
    "location": "Uyo Aka road, Akwa Ibom, Nigeria",
    "type": "Rentals",
    "image": "../assets/images/mapimg.png",
    "pinpoint": "../assets/images/pinpoint.png"
  },
  {
    "id": 7,
    "latitude": 6.4474,
    "longitude": 7.515,
      "price": "₦1,500,000",
        "rent": "yearly",
    "title": "3 Bedroom Bungalow",
    "location": "Uyo Aka road, Akwa Ibom, Nigeria",
    "type": "Sale",
    "image": "../assets/images/mapimg.png",
    "pinpoint": "../assets/images/pinpoint.png"
  },
  {
    "id": 8,
    "latitude": 8.893,
    "longitude": 7.1609,
      "price": "₦1,500,000",
    "rent": "yearly",    "title": "Cozy Apartment",
    "location": "Uyo Aka road, Akwa Ibom, Nigeria",
    "type": "Rentals",
    "image": "../assets/images/mapimg.png",
    "pinpoint": "../assets/images/pinpoint.png"
  },
  {
    "id": 9,
    "latitude": 10.4527,
    "longitude": 7.5386,
      "price": "₦1,500,000",
        "rent": "yearly",
    "title": "5 Bedroom Mansion",
    "location": "Uyo Aka road, Akwa Ibom, Nigeria",
    "type": "Sale",
    "image": "../assets/images/mapimg.png",
    "pinpoint": "../assets/images/pinpoint.png"
  }
]
