[
  {
    "id": 1,
    "latitude": 6.5244,
    "longitude": 3.3792,
    "price": "₦165M",
    "rent": "yearly",
    "title": "3 Bedroom Flat",
    "location": "Yaba, Lagos, Nigeria",
    "type": "Sale",
    "image": "../assets/images/mapimg.png",
    "pinpoint": "../assets/images/pinpoint.png"
  },
  {
    "id": 2,
    "latitude": 6.525,
    "longitude": 3.379,
    "price": "₦180M", 
    "rent": "yearly",
    "title": "2 Bedroom Apartment",
    "location": "Ikeja, Lagos, Nigeria",
    "type": "Rentals",
    "image": "../assets/images/mapimg.png",
    "pinpoint": "../assets/images/pinpoint.png"
  },
  {
    "id": 3,
    "latitude": 6.5248,
    "longitude": 3.3794,
    "price": "₦150M", 
    "rent": "yearly",
    "title": "Luxury Penthouse",
    "location": "Victoria Island, Lagos, Nigeria",
    "type": "Sale",
    "image": "../assets/images/mapimg.png",
    "pinpoint": "../assets/images/pinpoint.png"
  },
  {
    "id": 4,
    "latitude": 6.5245,
    "longitude": 3.3793,
    "price": "₦140M", 
    "rent": "yearly",
    "title": "1 Bedroom Studio",
    "location": "Surulere, Lagos, Nigeria",
    "type": "Rentals",
    "image": "../assets/images/mapimg.png",
    "pinpoint": "../assets/images/pinpoint.png"
  },
  {
    "id": 5,
    "latitude": 6.5243,
    "longitude": 3.3791,
    "price": "₦200M", 
    "rent": "yearly",
    "title": "4 Bedroom Duplex",
    "location": "Lekki, Lagos, Nigeria",
    "type": "Sale",
    "image": "../assets/images/mapimg.png",
    "pinpoint": "../assets/images/pinpoint.png"
  }
]
